{"resourceType":"Location","id":"0b9875ba-9310-313d-93d4-bf552585d527","meta":{"profile":["http://hl7.org/fhir/us/core/StructureDefinition/us-core-location"]},"identifier":[{"system":"https://github.com/synthetichealth/synthea","value":"0b9875ba-9310-313d-93d4-bf552585d527"}],"status":"active","name":"LIFE CARE CENTER OF BURLINGTON","telecom":[{"system":"phone","value":"6203642117"}],"address":{"line":["601 CROSS STREET"],"city":"BURLINGTON","state":"KS","postalCode":"668391105","country":"US"},"position":{"longitude":-95.742114,"latitude":38.206373},"managingOrganization":{"identifier":{"system":"https://github.com/synthetichealth/synthea","value":"658bfe6a-1b87-3ca3-9923-959fd4e14477"},"display":"LIFE CARE CENTER OF BURLINGTON"}}
{"resourceType":"Location","id":"14832308-0e8e-336d-89bd-b6426a2ad97e","meta":{"profile":["http://hl7.org/fhir/us/core/StructureDefinition/us-core-location"]},"identifier":[{"system":"https://github.com/synthetichealth/synthea","value":"14832308-0e8e-336d-89bd-b6426a2ad97e"}],"status":"active","name":"UK ST FRANCIS URGENT CARE","telecom":[{"system":"phone","value":"7855966088"}],"address":{"line":["1101 SW 29TH ST"],"city":"TOPEKA","state":"KS","postalCode":"666142218","country":"US"},"position":{"longitude":-95.691072,"latitude":39.015056},"managingOrganization":{"identifier":{"system":"https://github.com/synthetichealth/synthea","value":"4de05f8e-95ca-3a2f-818a-39a974dcf8bf"},"display":"UK ST FRANCIS URGENT CARE"}}
{"resourceType":"Location","id":"16a26e7c-d6a6-3e2f-8af9-2b57503ad048","meta":{"profile":["http://hl7.org/fhir/us/core/StructureDefinition/us-core-location"]},"identifier":[{"system":"https://github.com/synthetichealth/synthea","value":"16a26e7c-d6a6-3e2f-8af9-2b57503ad048"}],"status":"active","name":"NORTON MEDICAL CLINIC","telecom":[{"system":"phone","value":"7858773305"}],"address":{"line":["807 N STATE STREET"],"city":"NORTON","state":"KS","postalCode":"676541403","country":"US"},"position":{"longitude":-99.88865479605424,"latitude":39.83710138310785},"managingOrganization":{"identifier":{"system":"https://github.com/synthetichealth/synthea","value":"e4793154-8425-33df-a455-d3269cef861a"},"display":"NORTON MEDICAL CLINIC"}}
{"resourceType":"Location","id":"17fdeded-8390-3518-a2ca-02ae0bdfce5b","meta":{"profile":["http://hl7.org/fhir/us/core/StructureDefinition/us-core-location"]},"identifier":[{"system":"https://github.com/synthetichealth/synthea","value":"17fdeded-8390-3518-a2ca-02ae0bdfce5b"}],"status":"active","name":"ANDBE HOME, INC","telecom":[{"system":"phone","value":"7858772601"}],"address":{"line":["201 W CRANE STREET"],"city":"NORTON","state":"KS","postalCode":"676541117","country":"US"},"position":{"longitude":-99.89053622600223,"latitude":39.840390445227904},"managingOrganization":{"identifier":{"system":"https://github.com/synthetichealth/synthea","value":"dce5df56-31c3-3dba-84b7-6e9638e51f61"},"display":"ANDBE HOME, INC"}}
{"resourceType":"Location","id":"181ad8e2-5cb8-343c-b80b-4a439077017c","meta":{"profile":["http://hl7.org/fhir/us/core/StructureDefinition/us-core-location"]},"identifier":[{"system":"https://github.com/synthetichealth/synthea","value":"181ad8e2-5cb8-343c-b80b-4a439077017c"}],"status":"active","name":"HEALTH AND WELLNESS CLINIC, LLC","telecom":[{"system":"phone","value":"9135791154"}],"address":{"line":["7423 METCALF AVE"],"city":"OVERLAND PARK","state":"KS","postalCode":"662041975","country":"US"},"position":{"longitude":-94.66758659407807,"latitude":38.99458306176166},"managingOrganization":{"identifier":{"system":"https://github.com/synthetichealth/synthea","value":"6d897d1c-a732-346f-991e-6e1a5b3d5af1"},"display":"HEALTH AND WELLNESS CLINIC, LLC"}}
{"resourceType":"Location","id":"185312a0-05aa-3dae-9a19-9ebf1fb3a524","meta":{"profile":["http://hl7.org/fhir/us/core/StructureDefinition/us-core-location"]},"identifier":[{"system":"https://github.com/synthetichealth/synthea","value":"185312a0-05aa-3dae-9a19-9ebf1fb3a524"}],"status":"active","name":"WILLIAMS MEDICAL GROUP PRACTICE LLC","telecom":[{"system":"phone","value":"6206157197"}],"address":{"line":["1805 1/2 E 17TH AVE"],"city":"HUTCHINSON","state":"KS","postalCode":"675011102","country":"US"},"position":{"longitude":-97.9131259,"latitude":38.0720774},"managingOrganization":{"identifier":{"system":"https://github.com/synthetichealth/synthea","value":"e33eb719-da96-36bb-9a7a-3204a7a7e59b"},"display":"WILLIAMS MEDICAL GROUP PRACTICE LLC"}}
{"resourceType":"Location","id":"25540c34-e643-3a84-8a83-1229472c76bb","meta":{"profile":["http://hl7.org/fhir/us/core/StructureDefinition/us-core-location"]},"identifier":[{"system":"https://github.com/synthetichealth/synthea","value":"25540c34-e643-3a84-8a83-1229472c76bb"}],"status":"active","name":"NINNESCAH VALLEY HEALTH SYSTEMS INC","telecom":[{"system":"phone","value":"6205320295"}],"address":{"line":["112 N MAIN ST"],"city":"CUNNINGHAM","state":"KS","postalCode":"670358802","country":"US"},"position":{"longitude":-98.43275177551021,"latitude":37.64547912244898},"managingOrganization":{"identifier":{"system":"https://github.com/synthetichealth/synthea","value":"e2fb8961-be35-3526-a2da-6a639f69579b"},"display":"NINNESCAH VALLEY HEALTH SYSTEMS INC"}}
{"resourceType":"Location","id":"2f2718b2-8741-3ad6-bb1c-9b7bc0f34bf4","meta":{"profile":["http://hl7.org/fhir/us/core/StructureDefinition/us-core-location"]},"identifier":[{"system":"https://github.com/synthetichealth/synthea","value":"2f2718b2-8741-3ad6-bb1c-9b7bc0f34bf4"}],"status":"active","name":"PHILLIPS COUNTY HOSPITAL","telecom":[{"system":"phone","value":"7855435226"}],"address":{"line":["1150 STATE ST"],"city":"PHILLIPSBURG","state":"KS","postalCode":"676611743","country":"US"},"position":{"longitude":-99.31329195009515,"latitude":39.7552375},"managingOrganization":{"identifier":{"system":"https://github.com/synthetichealth/synthea","value":"819b3bd8-e1b3-3445-bc4b-523c291a3641"},"display":"PHILLIPS COUNTY HOSPITAL"}}
{"resourceType":"Location","id":"3003bee6-9fb2-3eae-a6cf-0d32d09e28c9","meta":{"profile":["http://hl7.org/fhir/us/core/StructureDefinition/us-core-location"]},"identifier":[{"system":"https://github.com/synthetichealth/synthea","value":"3003bee6-9fb2-3eae-a6cf-0d32d09e28c9"}],"status":"active","name":"NEWMAN MEMORIAL COUNTY HOSPITAL","telecom":[{"system":"phone","value":"6203436800"}],"address":{"line":["1201 W 12TH AVE"],"city":"EMPORIA","state":"KS","postalCode":"668012504","country":"US"},"position":{"longitude":-96.19574205651222,"latitude":38.4112851},"managingOrganization":{"identifier":{"system":"https://github.com/synthetichealth/synthea","value":"61e67719-63e4-318e-91ab-c834166b4680"},"display":"NEWMAN MEMORIAL COUNTY HOSPITAL"}}
{"resourceType":"Location","id":"32e7c7dd-9f9d-3ab0-a53b-d6f8cd0473bf","meta":{"profile":["http://hl7.org/fhir/us/core/StructureDefinition/us-core-location"]},"identifier":[{"system":"https://github.com/synthetichealth/synthea","value":"32e7c7dd-9f9d-3ab0-a53b-d6f8cd0473bf"}],"status":"active","name":"URGENT CARE CHIROPRACTIC PA","telecom":[{"system":"phone","value":"4803349812"}],"address":{"line":["13469 SWITZER RD"],"city":"OVERLAND PARK","state":"KS","postalCode":"662133301","country":"US"},"position":{"longitude":-94.70035613953269,"latitude":38.88459872206957},"managingOrganization":{"identifier":{"system":"https://github.com/synthetichealth/synthea","value":"5a843c7a-a56d-34b0-ad17-bd3a09b8b22b"},"display":"URGENT CARE CHIROPRACTIC PA"}}
{"resourceType":"Location","id":"39d1bfd1-0503-3d59-b24a-b7f26a58004f","meta":{"profile":["http://hl7.org/fhir/us/core/StructureDefinition/us-core-location"]},"identifier":[{"system":"https://github.com/synthetichealth/synthea","value":"39d1bfd1-0503-3d59-b24a-b7f26a58004f"}],"status":"active","name":"RECOVER-CARE EMPORIA LLC","telecom":[{"system":"phone","value":"6203423280"}],"address":{"line":["1620 WHEELER ST"],"city":"EMPORIA","state":"KS","postalCode":"668016146","country":"US"},"position":{"longitude":-96.21223614285714,"latitude":38.41808622222222},"managingOrganization":{"identifier":{"system":"https://github.com/synthetichealth/synthea","value":"7a07c9b5-8bd4-3dda-983e-45d4bb580008"},"display":"RECOVER-CARE EMPORIA LLC"}}
{"resourceType":"Location","id":"3b23bdf7-5bd6-30bf-85a9-a37d7d74938a","meta":{"profile":["http://hl7.org/fhir/us/core/StructureDefinition/us-core-location"]},"identifier":[{"system":"https://github.com/synthetichealth/synthea","value":"3b23bdf7-5bd6-30bf-85a9-a37d7d74938a"}],"status":"active","name":"NEWMAN MEMORIAL COUNTY HOSPITAL","telecom":[{"system":"phone","value":"6203436800"}],"address":{"line":["1201 W 12TH AVE"],"city":"EMPORIA","state":"KS","postalCode":"668012504","country":"US"},"position":{"longitude":-96.19574205651222,"latitude":38.4112851},"managingOrganization":{"identifier":{"system":"https://github.com/synthetichealth/synthea","value":"a261e1fc-9361-3633-a2c4-8569a04b818d"},"display":"NEWMAN MEMORIAL COUNTY HOSPITAL"}}
{"resourceType":"Location","id":"3b551517-4d1a-34c5-b21f-21d3a6707c36","meta":{"profile":["http://hl7.org/fhir/us/core/StructureDefinition/us-core-location"]},"identifier":[{"system":"https://github.com/synthetichealth/synthea","value":"3b551517-4d1a-34c5-b21f-21d3a6707c36"}],"status":"active","name":"AT-HOME HEALTH CARE INC","telecom":[{"system":"phone","value":"6203419350"}],"address":{"line":["2708 W 12TH AVE"],"city":"EMPORIA","state":"KS","postalCode":"668016341","country":"US"},"position":{"longitude":-96.2144929387755,"latitude":38.412397081632655},"managingOrganization":{"identifier":{"system":"https://github.com/synthetichealth/synthea","value":"d0d7bbbc-9a6a-3b07-80c1-8ee50420d8e6"},"display":"AT-HOME HEALTH CARE INC"}}
{"resourceType":"Location","id":"49167f95-19f3-3e6e-be51-9a6950138ff4","meta":{"profile":["http://hl7.org/fhir/us/core/StructureDefinition/us-core-location"]},"identifier":[{"system":"https://github.com/synthetichealth/synthea","value":"49167f95-19f3-3e6e-be51-9a6950138ff4"}],"status":"active","name":"PHILLIPS COUNTY HOSPITAL","telecom":[{"system":"phone","value":"7855435211"}],"address":{"line":["1719 HIGHWAY 183"],"city":"PHILLIPSBURG","state":"KS","postalCode":"676612549","country":"US"},"position":{"longitude":-99.323985,"latitude":39.756121},"managingOrganization":{"identifier":{"system":"https://github.com/synthetichealth/synthea","value":"6a0cfb72-aacb-3836-a49b-5f41fd09dc38"},"display":"PHILLIPS COUNTY HOSPITAL"}}
{"resourceType":"Location","id":"4d308916-6e65-3209-ab0c-4aa34d26d01b","meta":{"profile":["http://hl7.org/fhir/us/core/StructureDefinition/us-core-location"]},"identifier":[{"system":"https://github.com/synthetichealth/synthea","value":"4d308916-6e65-3209-ab0c-4aa34d26d01b"}],"status":"active","name":"SELECT SPECIALTY HOSPITAL WICHITA","telecom":[{"system":"phone","value":"3169623930"}],"address":{"line":["929 NORTH ST FRANCIS, 6TH FLOOR, NORTH TOWER"],"city":"WICHITA","state":"KS","postalCode":"672143821","country":"US"},"position":{"longitude":-97.33271175285373,"latitude":37.6981691},"managingOrganization":{"identifier":{"system":"https://github.com/synthetichealth/synthea","value":"669511b1-75c5-3029-9f90-81335c0e6f08"},"display":"SELECT SPECIALTY HOSPITAL WICHITA"}}
{"resourceType":"Location","id":"4ed9c76a-08e4-3592-a31e-a9b29a74f6b6","meta":{"profile":["http://hl7.org/fhir/us/core/StructureDefinition/us-core-location"]},"identifier":[{"system":"https://github.com/synthetichealth/synthea","value":"4ed9c76a-08e4-3592-a31e-a9b29a74f6b6"}],"status":"active","name":"SAINT LUKE'S SOUTH HOSPITAL INC","telecom":[{"system":"phone","value":"9133177000"}],"address":{"line":["12300 METCALF AVE"],"city":"OVERLAND PARK","state":"KS","postalCode":"662131324","country":"US"},"position":{"longitude":-94.66968090917021,"latitude":38.90339525},"managingOrganization":{"identifier":{"system":"https://github.com/synthetichealth/synthea","value":"5b1ee7ed-c5ed-3d63-a54c-bd0d1f2f301b"},"display":"SAINT LUKE'S SOUTH HOSPITAL INC"}}
{"resourceType":"Location","id":"5490574a-979d-31ab-a538-782f9e2ee183","meta":{"profile":["http://hl7.org/fhir/us/core/StructureDefinition/us-core-location"]},"identifier":[{"system":"https://github.com/synthetichealth/synthea","value":"5490574a-979d-31ab-a538-782f9e2ee183"}],"status":"active","name":"PHILLIPS COUNTY HOSPITAL","telecom":[{"system":"phone","value":"7855435226"}],"address":{"line":["1150 STATE ST"],"city":"PHILLIPSBURG","state":"KS","postalCode":"676611743","country":"US"},"position":{"longitude":-99.31329195009515,"latitude":39.7552375},"managingOrganization":{"identifier":{"system":"https://github.com/synthetichealth/synthea","value":"4121db5e-9ede-3e15-9ca2-310895a47b0b"},"display":"PHILLIPS COUNTY HOSPITAL"}}
{"resourceType":"Location","id":"578a239f-0243-3287-87c3-04fdaa6e639c","meta":{"profile":["http://hl7.org/fhir/us/core/StructureDefinition/us-core-location"]},"identifier":[{"system":"https://github.com/synthetichealth/synthea","value":"578a239f-0243-3287-87c3-04fdaa6e639c"}],"status":"active","name":"HUTCHINSON REGIONAL MEDICAL CENTER INC","telecom":[{"system":"phone","value":"6206652000"}],"address":{"line":["1701 E 23RD AVE"],"city":"HUTCHINSON","state":"KS","postalCode":"675021105","country":"US"},"position":{"longitude":-97.89192244539859,"latitude":38.077257200000005},"managingOrganization":{"identifier":{"system":"https://github.com/synthetichealth/synthea","value":"a064574b-0685-32f5-a693-2b86d19c35bd"},"display":"HUTCHINSON REGIONAL MEDICAL CENTER INC"}}
{"resourceType":"Location","id":"64349ed7-e6aa-3bf1-962a-8800098b9346","meta":{"profile":["http://hl7.org/fhir/us/core/StructureDefinition/us-core-location"]},"identifier":[{"system":"https://github.com/synthetichealth/synthea","value":"64349ed7-e6aa-3bf1-962a-8800098b9346"}],"status":"active","name":"VITAS INNOVATIVE HOSPICE CARE","telecom":[{"system":"phone","value":"9137221631"}],"address":{"line":["8527 BLUEJACKET DRIVE"],"city":"LENEXA","state":"KS","postalCode":"66214","country":"US"},"position":{"longitude":-94.7845837,"latitude":38.9697458},"managingOrganization":{"identifier":{"system":"https://github.com/synthetichealth/synthea","value":"2eff3da7-ab13-347f-94d4-3fa5c0dbc75d"},"display":"VITAS INNOVATIVE HOSPICE CARE"}}
{"resourceType":"Location","id":"74d720f7-ecb0-377d-b710-2909a98bad35","meta":{"profile":["http://hl7.org/fhir/us/core/StructureDefinition/us-core-location"]},"identifier":[{"system":"https://github.com/synthetichealth/synthea","value":"74d720f7-ecb0-377d-b710-2909a98bad35"}],"status":"active","name":"MOUNT ST MARY INC","telecom":[{"system":"phone","value":"3166867171"}],"address":{"line":["3700 E LINCOLN ST"],"city":"WICHITA","state":"KS","postalCode":"672182008","country":"US"},"position":{"longitude":-97.29313439252337,"latitude":37.67207591588785},"managingOrganization":{"identifier":{"system":"https://github.com/synthetichealth/synthea","value":"eacf96c9-3091-3d2d-aa23-10e3e14b3cd0"},"display":"MOUNT ST MARY INC"}}
{"resourceType":"Location","id":"7cf6ad8f-30a6-33bb-8fe0-6f688207a213","meta":{"profile":["http://hl7.org/fhir/us/core/StructureDefinition/us-core-location"]},"identifier":[{"system":"https://github.com/synthetichealth/synthea","value":"7cf6ad8f-30a6-33bb-8fe0-6f688207a213"}],"status":"active","name":"OVERLAND PARK REG MED CTR","telecom":[{"system":"phone","value":"9135415000"}],"address":{"line":["10500 QUIVIRA ROAD"],"city":"SHAWNEE","state":"KS","postalCode":"662033502","country":"US"},"position":{"longitude":-94.7236195,"latitude":38.9928775},"managingOrganization":{"identifier":{"system":"https://github.com/synthetichealth/synthea","value":"55f9298b-e904-3fe0-ae3d-e8c0c4f7faf8"},"display":"OVERLAND PARK REG MED CTR"}}
{"resourceType":"Location","id":"80fa1bca-a5e8-359a-b387-96763a614440","meta":{"profile":["http://hl7.org/fhir/us/core/StructureDefinition/us-core-location"]},"identifier":[{"system":"https://github.com/synthetichealth/synthea","value":"80fa1bca-a5e8-359a-b387-96763a614440"}],"status":"active","name":"ASCENSION VIA CHRISTI HOSPITALS WICHITA, INC.","telecom":[{"system":"phone","value":"3162685000"}],"address":{"line":["929 N SAINT FRANCIS ST"],"city":"WICHITA","state":"KS","postalCode":"672183713","country":"US"},"position":{"longitude":-97.33271175285373,"latitude":37.6981691},"managingOrganization":{"identifier":{"system":"https://github.com/synthetichealth/synthea","value":"2cbc6947-061e-3f00-9a7d-18409e84c40d"},"display":"ASCENSION VIA CHRISTI HOSPITALS WICHITA, INC."}}
{"resourceType":"Location","id":"8e981b39-d999-3155-a990-4738b94e3383","meta":{"profile":["http://hl7.org/fhir/us/core/StructureDefinition/us-core-location"]},"identifier":[{"system":"https://github.com/synthetichealth/synthea","value":"8e981b39-d999-3155-a990-4738b94e3383"}],"status":"active","name":"PALMERI URGENT CARE LLC","telecom":[{"system":"phone","value":"9132488000"}],"address":{"line":["11338 W 63RD ST"],"city":"SHAWNEE","state":"KS","postalCode":"662162577","country":"US"},"position":{"longitude":-94.71953290195394,"latitude":39.014869564750384},"managingOrganization":{"identifier":{"system":"https://github.com/synthetichealth/synthea","value":"31be1299-13c9-3f4b-b932-96ca73cd578a"},"display":"PALMERI URGENT CARE LLC"}}
{"resourceType":"Location","id":"903d2c77-31a2-3572-b99d-55fcdb7e3f52","meta":{"profile":["http://hl7.org/fhir/us/core/StructureDefinition/us-core-location"]},"identifier":[{"system":"https://github.com/synthetichealth/synthea","value":"903d2c77-31a2-3572-b99d-55fcdb7e3f52"}],"status":"active","name":"GRACEMED HEALTH CLINIC INC","telecom":[{"system":"phone","value":"3168662000"}],"address":{"line":["3610 E ROSS PKWY"],"city":"WICHITA","state":"KS","postalCode":"672101311","country":"US"},"position":{"longitude":-97.2946380671141,"latitude":37.641899771812085},"managingOrganization":{"identifier":{"system":"https://github.com/synthetichealth/synthea","value":"ca275b1b-c90e-3e95-84c9-3b4240fb9284"},"display":"GRACEMED HEALTH CLINIC INC"}}
{"resourceType":"Location","id":"939e045b-61b9-3214-8486-0aabdc5b29d6","meta":{"profile":["http://hl7.org/fhir/us/core/StructureDefinition/us-core-location"]},"identifier":[{"system":"https://github.com/synthetichealth/synthea","value":"939e045b-61b9-3214-8486-0aabdc5b29d6"}],"status":"active","name":"NEWMAN MEMORIAL COUNTY HOSPITAL","telecom":[{"system":"phone","value":"6203432376"}],"address":{"line":["1301 W 12TH AVE STE 301"],"city":"EMPORIA","state":"KS","postalCode":"668012590","country":"US"},"position":{"longitude":-96.19680122315218,"latitude":38.4115326},"managingOrganization":{"identifier":{"system":"https://github.com/synthetichealth/synthea","value":"f49b2352-36d5-3de4-b7e0-98a707a8f6e8"},"display":"NEWMAN MEMORIAL COUNTY HOSPITAL"}}
{"resourceType":"Location","id":"969fa26e-cf7c-3964-b9e7-07d82d1eb7e2","meta":{"profile":["http://hl7.org/fhir/us/core/StructureDefinition/us-core-location"]},"identifier":[{"system":"https://github.com/synthetichealth/synthea","value":"969fa26e-cf7c-3964-b9e7-07d82d1eb7e2"}],"status":"active","name":"SUNFLOWER HOME HEALTH AND HOSPICE","telecom":[{"system":"phone","value":"3168543535"}],"address":{"line":["826 E LINCOLN ST"],"city":"WICHITA","state":"KS","postalCode":"672113303","country":"US"},"position":{"longitude":-97.32867571400442,"latitude":37.671754074589956},"managingOrganization":{"identifier":{"system":"https://github.com/synthetichealth/synthea","value":"0ffa99cb-e8a7-39b7-af2e-1e022261d022"},"display":"SUNFLOWER HOME HEALTH AND HOSPICE"}}
{"resourceType":"Location","id":"a207e55a-d2bd-3051-bc81-bc098efadc4e","meta":{"profile":["http://hl7.org/fhir/us/core/StructureDefinition/us-core-location"]},"identifier":[{"system":"https://github.com/synthetichealth/synthea","value":"a207e55a-d2bd-3051-bc81-bc098efadc4e"}],"status":"active","name":"OPTIMAL WELLNESS LLC","telecom":[{"system":"phone","value":"3164251911"}],"address":{"line":["3017 N CYPRESS ST"],"city":"WICHITA","state":"KS","postalCode":"672264026","country":"US"},"position":{"longitude":-97.231025,"latitude":37.702832},"managingOrganization":{"identifier":{"system":"https://github.com/synthetichealth/synthea","value":"2870cafc-5f54-3dc3-8097-e492f467977d"},"display":"OPTIMAL WELLNESS LLC"}}
{"resourceType":"Location","id":"a4296fd3-474d-3558-9e64-355136ce8b01","meta":{"profile":["http://hl7.org/fhir/us/core/StructureDefinition/us-core-location"]},"identifier":[{"system":"https://github.com/synthetichealth/synthea","value":"a4296fd3-474d-3558-9e64-355136ce8b01"}],"status":"active","name":"FAMILY HEALTH MEDICAL GROUP OF OVERLAND PARK, LLC","telecom":[{"system":"phone","value":"9134911616"}],"address":{"line":["12330 METCALF AVE"],"city":"OVERLAND PARK","state":"KS","postalCode":"662232124","country":"US"},"position":{"longitude":-94.66786875,"latitude":38.90396174999999},"managingOrganization":{"identifier":{"system":"https://github.com/synthetichealth/synthea","value":"76e7bd64-0896-32ec-91b4-8fe1baca3adf"},"display":"FAMILY HEALTH MEDICAL GROUP OF OVERLAND PARK, LLC"}}
{"resourceType":"Location","id":"ad844b6f-9dc6-370e-bd6e-6986244b1d7b","meta":{"profile":["http://hl7.org/fhir/us/core/StructureDefinition/us-core-location"]},"identifier":[{"system":"https://github.com/synthetichealth/synthea","value":"ad844b6f-9dc6-370e-bd6e-6986244b1d7b"}],"status":"active","name":"GOOD SHEPHERD HOSPICE","telecom":[{"system":"phone","value":"3166162277"}],"address":{"line":["7829 E ROCKHILL STE 403"],"city":"WICHITA","state":"KS","postalCode":"672063915","country":"US"},"position":{"longitude":-97.24649854891742,"latitude":37.71811420557198},"managingOrganization":{"identifier":{"system":"https://github.com/synthetichealth/synthea","value":"520c2979-22bf-3314-8455-e2f43555fa07"},"display":"GOOD SHEPHERD HOSPICE"}}
{"resourceType":"Location","id":"b70261ef-db68-353c-b4e5-bf3fc2bcbc1a","meta":{"profile":["http://hl7.org/fhir/us/core/StructureDefinition/us-core-location"]},"identifier":[{"system":"https://github.com/synthetichealth/synthea","value":"b70261ef-db68-353c-b4e5-bf3fc2bcbc1a"}],"status":"active","name":"ADVENTHEALTH SHAWNEE MISSION","telecom":[{"system":"phone","value":"9136762152"}],"address":{"line":["9100 W 74TH STREET"],"city":"SHAWNEE MISSION","state":"KS","postalCode":"662044004","country":"US"},"position":{"longitude":-94.69156070052108,"latitude":38.99534235},"managingOrganization":{"identifier":{"system":"https://github.com/synthetichealth/synthea","value":"ad42891f-a3d9-3642-9b31-21729ccfdea1"},"display":"ADVENTHEALTH SHAWNEE MISSION"}}
{"resourceType":"Location","id":"bb1ad573-19b8-9cd8-68fb-0e6f684df992","identifier":[{"system":"https://github.com/synthetichealth/synthea","value":"bb1ad573-19b8-9cd8-68fb-0e6f684df992"}],"status":"active","description":"Patient's Home","mode":"kind","physicalType":{"coding":[{"system":"http://terminology.hl7.org/CodeSystem/location-physical-type","code":"ho","display":"House"}]}}
{"resourceType":"Location","id":"c5ac3f2f-b2ff-3990-9c93-4741edc619d3","meta":{"profile":["http://hl7.org/fhir/us/core/StructureDefinition/us-core-location"]},"identifier":[{"system":"https://github.com/synthetichealth/synthea","value":"c5ac3f2f-b2ff-3990-9c93-4741edc619d3"}],"status":"active","name":"HILLTOP MANOR NURSING CENTER","telecom":[{"system":"phone","value":"6202982781"}],"address":{"line":["403 S VALLEY,  PO BOX 8"],"city":"CUNNINGHAM","state":"KS","postalCode":"670358120","country":"US"},"position":{"longitude":-98.4311883,"latitude":37.6439067},"managingOrganization":{"identifier":{"system":"https://github.com/synthetichealth/synthea","value":"048630ac-ba97-3386-9ac5-d8bf6392db50"},"display":"HILLTOP MANOR NURSING CENTER"}}
{"resourceType":"Location","id":"d1565f3a-b34f-3965-960d-7fa4f3b7ec78","meta":{"profile":["http://hl7.org/fhir/us/core/StructureDefinition/us-core-location"]},"identifier":[{"system":"https://github.com/synthetichealth/synthea","value":"d1565f3a-b34f-3965-960d-7fa4f3b7ec78"}],"status":"active","name":"NEWMAN REGIONAL HEALTH","telecom":[{"system":"phone","value":"6203436800"}],"address":{"line":["1201 WEST 12TH AVENUE"],"city":"EMPORIA","state":"KS","postalCode":"668012590","country":"US"},"position":{"longitude":-96.19574205651222,"latitude":38.4112851},"managingOrganization":{"identifier":{"system":"https://github.com/synthetichealth/synthea","value":"8a990ec7-9b5c-389f-9806-59d1113dfaae"},"display":"NEWMAN REGIONAL HEALTH"}}
{"resourceType":"Location","id":"d450d802-006a-34df-ae15-1444aaa0fa64","meta":{"profile":["http://hl7.org/fhir/us/core/StructureDefinition/us-core-location"]},"identifier":[{"system":"https://github.com/synthetichealth/synthea","value":"d450d802-006a-34df-ae15-1444aaa0fa64"}],"status":"active","name":"BROOKDALE OVERLAND PARK","telecom":[{"system":"phone","value":"9136632888"}],"address":{"line":["12000 LAMAR"],"city":"OVERLAND PARK","state":"KS","postalCode":"662092705","country":"US"},"position":{"longitude":-94.65861589300168,"latitude":38.91127436776185},"managingOrganization":{"identifier":{"system":"https://github.com/synthetichealth/synthea","value":"ef0c451a-7736-3165-99a0-c888b0a73c41"},"display":"BROOKDALE OVERLAND PARK"}}
{"resourceType":"Location","id":"d92fed4c-bf8f-3d87-bc91-927bd4790dfa","meta":{"profile":["http://hl7.org/fhir/us/core/StructureDefinition/us-core-location"]},"identifier":[{"system":"https://github.com/synthetichealth/synthea","value":"d92fed4c-bf8f-3d87-bc91-927bd4790dfa"}],"status":"active","name":"ASCENSION VIA CHRISTI REHABILITATION HOSPITAL, INC","telecom":[{"system":"phone","value":"3166343400"}],"address":{"line":["1151 N ROCK ROAD"],"city":"WICHITA","state":"KS","postalCode":"672061262","country":"US"},"position":{"longitude":-97.24589642491101,"latitude":37.70385535},"managingOrganization":{"identifier":{"system":"https://github.com/synthetichealth/synthea","value":"aa0977f9-4984-34e8-8cea-ca0d382ad874"},"display":"ASCENSION VIA CHRISTI REHABILITATION HOSPITAL, INC"}}
{"resourceType":"Location","id":"ddd73137-e2aa-3ad1-84b8-a8521d1b715b","meta":{"profile":["http://hl7.org/fhir/us/core/StructureDefinition/us-core-location"]},"identifier":[{"system":"https://github.com/synthetichealth/synthea","value":"ddd73137-e2aa-3ad1-84b8-a8521d1b715b"}],"status":"active","name":"HAND IN HAND HOSPICE","telecom":[{"system":"phone","value":"6203406177"}],"address":{"line":["1201 W 12TH AVE"],"city":"EMPORIA","state":"KS","postalCode":"668012504","country":"US"},"position":{"longitude":-96.19574205651222,"latitude":38.4112851},"managingOrganization":{"identifier":{"system":"https://github.com/synthetichealth/synthea","value":"34cfc770-dc54-3f6f-9ca0-2b5bc6a20fea"},"display":"HAND IN HAND HOSPICE"}}
{"resourceType":"Location","id":"e000042e-46ac-3606-a82d-306a0d7ba7df","meta":{"profile":["http://hl7.org/fhir/us/core/StructureDefinition/us-core-location"]},"identifier":[{"system":"https://github.com/synthetichealth/synthea","value":"e000042e-46ac-3606-a82d-306a0d7ba7df"}],"status":"active","name":"K STAT URGENT CARE PA","telecom":[{"system":"phone","value":"7855650016"}],"address":{"line":["930 HAYES DR"],"city":"MANHATTAN","state":"KS","postalCode":"665033002","country":"US"},"position":{"longitude":-96.5543368,"latitude":39.1885909},"managingOrganization":{"identifier":{"system":"https://github.com/synthetichealth/synthea","value":"9d698797-2375-30bc-9610-2cd656600d73"},"display":"K STAT URGENT CARE PA"}}
{"resourceType":"Location","id":"e23c2b32-c362-3e1a-b74e-54523107440d","meta":{"profile":["http://hl7.org/fhir/us/core/StructureDefinition/us-core-location"]},"identifier":[{"system":"https://github.com/synthetichealth/synthea","value":"e23c2b32-c362-3e1a-b74e-54523107440d"}],"status":"active","name":"HUTCHINSON REGIONAL MEDICAL CENTER INC","telecom":[{"system":"phone","value":"6206652001"}],"address":{"line":["1701 E 23RD AVENUE"],"city":"HUTCHINSON","state":"KS","postalCode":"675023479","country":"US"},"position":{"longitude":-97.89192244539859,"latitude":38.077257200000005},"managingOrganization":{"identifier":{"system":"https://github.com/synthetichealth/synthea","value":"981f13f1-1cac-3311-87ba-5505f0354bf5"},"display":"HUTCHINSON REGIONAL MEDICAL CENTER INC"}}
{"resourceType":"Location","id":"e71e5e03-b8aa-3216-8560-f998fdd2341b","meta":{"profile":["http://hl7.org/fhir/us/core/StructureDefinition/us-core-location"]},"identifier":[{"system":"https://github.com/synthetichealth/synthea","value":"e71e5e03-b8aa-3216-8560-f998fdd2341b"}],"status":"active","name":"SHAWNEE MISSION MEDICAL CENTER INC","telecom":[{"system":"phone","value":"9136762000"}],"address":{"line":["9100 W 74TH ST"],"city":"MERRIAM","state":"KS","postalCode":"662044004","country":"US"},"position":{"longitude":-94.69156070052108,"latitude":38.99534235},"managingOrganization":{"identifier":{"system":"https://github.com/synthetichealth/synthea","value":"49dd8fe4-9d52-3e9d-afd4-bd7b51de8b82"},"display":"SHAWNEE MISSION MEDICAL CENTER INC"}}
{"resourceType":"Location","id":"e905bbc1-bb1d-3d86-a49d-954a306b53a1","meta":{"profile":["http://hl7.org/fhir/us/core/StructureDefinition/us-core-location"]},"identifier":[{"system":"https://github.com/synthetichealth/synthea","value":"e905bbc1-bb1d-3d86-a49d-954a306b53a1"}],"status":"active","name":"LYON CO HLTH DEPT AND COMMUNITY CENTER","telecom":[{"system":"phone","value":"6203424864"}],"address":{"line":["420 W 15TH AVE"],"city":"EMPORIA","state":"KS","postalCode":"668015367","country":"US"},"position":{"longitude":-96.18599589795919,"latitude":38.415776418367344},"managingOrganization":{"identifier":{"system":"https://github.com/synthetichealth/synthea","value":"10013492-ff81-3e94-ba39-da6cba63cbbd"},"display":"LYON CO HLTH DEPT AND COMMUNITY CENTER"}}
{"resourceType":"Location","id":"ebb5bdbf-a6ea-3b6a-8b35-0d069e99a532","meta":{"profile":["http://hl7.org/fhir/us/core/StructureDefinition/us-core-location"]},"identifier":[{"system":"https://github.com/synthetichealth/synthea","value":"ebb5bdbf-a6ea-3b6a-8b35-0d069e99a532"}],"status":"active","name":"SHARON LANE HEALTH SERVICES","telecom":[{"system":"phone","value":"9136318200"}],"address":{"line":["10315 JOHNSON DRIVE"],"city":"SHAWNEE","state":"KS","postalCode":"662033065","country":"US"},"position":{"longitude":-94.70560614285714,"latitude":39.022228},"managingOrganization":{"identifier":{"system":"https://github.com/synthetichealth/synthea","value":"7f307ea1-4eec-3832-a41e-069d34954a2c"},"display":"SHARON LANE HEALTH SERVICES"}}
{"resourceType":"Location","id":"f097f67d-fc39-36e8-bfff-9bf11afb4713","meta":{"profile":["http://hl7.org/fhir/us/core/StructureDefinition/us-core-location"]},"identifier":[{"system":"https://github.com/synthetichealth/synthea","value":"f097f67d-fc39-36e8-bfff-9bf11afb4713"}],"status":"active","name":"KINGMAN HEALTHCARE CENTER","telecom":[{"system":"phone","value":"6205323147"}],"address":{"line":["750 W AVE D"],"city":"KINGMAN","state":"KS","postalCode":"670681266","country":"US"},"position":{"longitude":-98.276403,"latitude":37.449993},"managingOrganization":{"identifier":{"system":"https://github.com/synthetichealth/synthea","value":"6bde829e-5fcf-3dee-ab70-a928bc3db03d"},"display":"KINGMAN HEALTHCARE CENTER"}}
{"resourceType":"Location","id":"f0ce1953-406a-3dce-b64c-7d3dd686c58d","meta":{"profile":["http://hl7.org/fhir/us/core/StructureDefinition/us-core-location"]},"identifier":[{"system":"https://github.com/synthetichealth/synthea","value":"f0ce1953-406a-3dce-b64c-7d3dd686c58d"}],"status":"active","name":"LIFE LINE COMMUNITY HEALTHCARE KANSAS PA","telecom":[{"system":"phone","value":"2165816556"}],"address":{"line":["6150 OAK TREE BLVD STE 200"],"city":"LENEXA","state":"KS","postalCode":"662153500","country":"US"},"position":{"longitude":-94.7845837,"latitude":38.9697458},"managingOrganization":{"identifier":{"system":"https://github.com/synthetichealth/synthea","value":"acd65d59-b90c-3362-a8dd-905bfd368b57"},"display":"LIFE LINE COMMUNITY HEALTHCARE KANSAS PA"}}
{"resourceType":"Location","id":"f468f5f4-1d57-37a9-9f5d-03cb3ecb8448","meta":{"profile":["http://hl7.org/fhir/us/core/StructureDefinition/us-core-location"]},"identifier":[{"system":"https://github.com/synthetichealth/synthea","value":"f468f5f4-1d57-37a9-9f5d-03cb3ecb8448"}],"status":"active","name":"MEDEXPRESS URGENT CARE KANSAS PA","telecom":[{"system":"phone","value":"7858413123"}],"address":{"line":["3420 W 6TH ST"],"city":"WICHITA","state":"KS","postalCode":"672173210","country":"US"},"position":{"longitude":-97.3375448,"latitude":37.6922361},"managingOrganization":{"identifier":{"system":"https://github.com/synthetichealth/synthea","value":"97ec0051-f3fb-3876-9f88-4c335d090345"},"display":"MEDEXPRESS URGENT CARE KANSAS PA"}}
